<kml xmlns="http://earth.google.com/kml/2.0">
<Document>
<Style id="z1">
<IconStyle>
<Icon>
<href>
http://www.google.com/intl/en_us/mapfiles/ms/micons/blue-dot.png
</href>
</Icon>
</IconStyle>
</Style>
<Placemark>
<name>2_Shrine</name>
<styleUrl>#z1</styleUrl>
<Point>
<coordinates>-118.2813,34.023751</coordinates>
</Point>
</Placemark>
<Placemark>
<name>5_McClintokTheatre</name>
<styleUrl>#z1</styleUrl>
<Point>
<coordinates>-118.287400,34.025198</coordinates>
</Point>
</Placemark>
<Placemark>
<name>6_24thStreetTheatre</name>
<styleUrl>#z1</styleUrl>
<Point>
<coordinates>-118.284510,34.034569</coordinates>
</Point>
</Placemark>
<Placemark>
<name>7_T-Mobile</name>
<styleUrl>#z1</styleUrl>
<Point>
<coordinates>-118.275447,34.030667</coordinates>
</Point>
</Placemark>
<Placemark>
<name>9_McDonald's</name>
<styleUrl>#z1</styleUrl>
<Point>
<coordinates>-118.274076,34.027872</coordinates>
</Point>
</Placemark>
</Document>
</kml>